name,longitude,latitude,city,state
& Gallery Australia,144.7420938,-38.3447273,Sorrento,VIC
16albermarle,151.1801893,-33.8961132,Newtown,NSW
19Karen Contemporary Artspace,153.4365469,-28.048387,Mermaid Beach,QLD
314 Abercrombie Gallery,151.1932156,-33.890862,Darlington,NSW
4A Centre for Contemporary Asian Art,151.2082848,-33.8698439,Sydney,NSW
8 Hele,133.8812885,-23.6983884,Alice Springs,NT
8 Wall Gallery,151.2272766,-33.8841572,Paddington,NSW
@14 Gallery,144.9881387,-37.802104,Collingwood,VIC
Aarwun Gallery,149.0964814,-35.1871606,Nicholls,ACT
Above and Below Gallery,148.7181466,-20.272494,Airlie Beach,QLD
ACAE Gallery,144.9863042,-37.8060945,Collingwood,VIC
Adelaide Central Gallery,138.6337521,-34.9427375,Glenside,SA
Adelaide Contemporary Experimental,138.5999312,-34.9281805,Adelaide,SA
Adelaide Town Hall Gallery,138.5999312,-34.9281805,Adelaide,SA
Alcaston Gallery,144.9631732,-37.8142454,Melbourne,VIC
Alta Forma,144.9631732,-37.8142454,Melbourne,VIC
Anna Schwartz Gallery,144.9631732,-37.8142454,Melbourne,VIC
Annandale Galleries,151.1709976,-33.881224,Annandale,NSW
Annette Larkin Fine Art,151.2272766,-33.8841572,Paddington,NSW
Antoinette Ferwerda Gallery,145.0163663,-37.9171728,Brighton East,VIC
ANU Drill Hall Gallery,149.1129681,-35.2852323,Acton,ACT
ANU School of Art & Design Gallery,149.1129681,-35.2852323,Acton,ACT
"Araluen Arts Centre, Mparntwe",133.8520548,-23.6970695,Araluen,NT
Ararat Gallery TAMA,142.9321971,-37.2830939,Ararat,VIC
ARC ONE Gallery,144.9631732,-37.8142454,Melbourne,VIC
ART ARK,147.1373496,-41.4340813,Launceston,TAS
Art by Farquhar,138.5694275,-34.9802157,Edwardstown,SA
Art Collective WA,115.8615536,-31.9553745,Art Collective,WA
Art Gallery of Ballarat,143.8584034,-37.5604517,North Ballarat,VIC
Art Gallery of New South Wales – Naala Badu Building,151.2174176,-33.8686067,Gallery of,NSW
Art Gallery of New South Wales – Naala Nura Building,151.2174176,-33.8686067,Gallery of,NSW
Art Gallery of South Australia,138.6039688,-34.9206307,Gallery of,SA
Art Images Gallery,138.6320869,-34.9213467,Norwood,SA
Art Leven (formerly Cooee Art),151.2148265,-33.8942852,Redfern,NSW
Art Lovers Australia – Gold Coast Gallery,153.4066696,-27.9687807,Southport,QLD
Art Lovers Australia – Melbourne Gallery,144.9881387,-37.802104,Collingwood,VIC
Art Space Gallery – The Concourse,145.1465345,-38.1892094,Concourse 409,VIC
Artbank Melbourne,144.9881387,-37.802104,Collingwood,VIC
Artbank Sydney,151.2082757,-33.9000713,Waterloo,NSW
Arthouse Gallery,151.2276557,-33.8750365,Rushcutters Bay,NSW
Artisan,153.0373122,-27.4434045,Bowen Hills,QLD
Artists Shed,149.1708774,-35.3216575,Fyshwick,ACT
ARTITJA FINE ART GALLERY,144.9918537,-37.8377695,South Yarra,VIC
Artprenr Gallery,153.0642316,-27.439467,Hamilton,QLD
Artpuff,144.2200032,-37.0664778,Castlemaine,VIC
Arts Centre Melbourne,144.9679835,-37.8201575,Melbourne,VIC
Arts Project Australia,144.9881387,-37.802104,Collingwood,VIC
Artsite Contemporary,151.1800986,-33.8896116,Camperdown,NSW
Artspace,151.2192218,-33.8718758,Woolloomooloo,NSW
ArtSpace at Realm,145.2291113,-37.8158726,Ringwood,VIC
ArtSpace Ballarat,143.8569511,-37.5663265,Central Ballarat,VIC
Artspace Mackay,149.1865149,-21.141956,Mackay,QLD
Aster + Asha Gallery,144.9918537,-37.8377695,South Yarra,VIC
Australian Centre for Contemporary Art (ACCA),144.9672082,-37.8242273,Southbank,VIC
Australian Centre for the Moving Image (ACMI),144.968386,-37.81843,Melbourne,VIC
Australian Design Centre,151.2168711,-33.8745996,Darlinghurst Sydney,NSW
Australian Galleries – Melbourne,144.9881387,-37.802104,Collingwood,VIC
Australian Galleries – Sydney,151.2272766,-33.8841572,Paddington,NSW
Australian National Capital Artists (ANCA) Gallery,149.1417216,-35.2527861,Dickson,ACT
Australian Print Workshop (APW),144.9781032,-37.8058394,Fitzroy,VIC
Australian Tapestry Workshop (ATW),144.954547,-37.8373181,South Melbourne,VIC
Australian War Memorial,149.158176,-35.2913397,Campbell,ACT
AVA Gallery,115.8605784,-31.9558967,Perth,WA
Backwoods Gallery,144.9881387,-37.802104,Collingwood,VIC
Banana Shire Regional Art Gallery,150.5141867,-24.3997711,Biloela,QLD
Bank Art Museum Moree (BAMM),149.8458273,-29.4811773,Moree,NSW
Bankstown Arts Centre,151.0311493,-33.918762,Bankstown,NSW
Barometer Gallery,151.2272766,-33.8841572,Paddington,NSW
Basil Sellers Exhibition Centre,150.0820002,-35.9098127,Moruya,NSW
Bathurst Regional Art Gallery,149.5803725,-33.4166482,Bathurst,NSW
Bayley Arts,145.04188,-37.9484438,Highett,VIC
Bayside Gallery,144.99900645767124,-37.910674814515595, Streets Brighton,VIC
Bearded Dragon Gallery,138.5999312,-34.9281805,Adelaide,SA
Beaver Galleries,149.1030764,-35.3192746,Deakin,ACT
Beechworth Contemporary Artspace,146.687012,-36.3594929,Beechworth,VIC
Beinart Gallery,144.9604043,-37.7666832,Gallery 307,VIC
Belco Arts,149.0431454,-35.2274338,Belconnen,ACT
Benalla Art Gallery,145.9833562,-36.5517611,Benalla,VIC
Bendigo Art Gallery,144.2768351,-36.7573481,Bendigo,VIC
Berninneit Gallery,145.2389787,-38.4502447,Cowes,VIC
Bett Gallery,144.9918537,-37.8377695,South Yarra,VIC
BLINDSIDE,144.9631732,-37.8142454,Melbourne,VIC
Blue Mountains City Art Gallery,150.3121633,-33.713759,Katoomba,NSW
BMGArt,138.5616289,-34.9453435,Marleston,SA
Bond Street Gallery,147.0656717,-38.1094463,Sale,VIC
Boom Gallery,144.3350959,-38.1539124,Newtown,VIC
Brenda Colahan Fine Art,151.2040292,-33.8931044,Redfern,NSW
Bribie Island Seaside Museum,153.1594566,-27.0839863,Bongaree,QLD
Brisbane Powerhouse,153.0469363,-27.466589,New Farm,QLD
Broken Hill City Art Gallery,141.4511111,-31.965,Broken Hill,NSW
Brunswick Street Gallery,144.9792611,-37.8010382,Fitzroy,VIC
BSIDE Gallery,144.9773418,-37.8038893,Fitzroy,VIC
Bunbury Regional Art Gallery,115.636698,-33.3267797,Bunbury,WA
Bundanon,150.4928397,-34.8664557,Illaroo,NSW
Bundoora Homestead Art Centre,145.0596757,-37.6982468,Bundoora,VIC
Bunjil Place Gallery,145.3037408,-38.0275167,Narre Warren,VIC
Burnie Regional Art Gallery,145.9064073,-41.0523688,Burnie,TAS
Burrinja Gallery,145.3339412,-37.9158104,Upwey,VIC
Bus Projects,144.9776825,-37.7688802,Brunswick East,VIC
Butter Factory Arts Centre,152.8986489,-26.424604,Cooroy,QLD
Buxton Contemporary,144.9640203,-37.8253618,Southbank,VIC
C. Gallery,144.9918537,-37.8377695,South Yarra,VIC
Caboolture Regional Art Gallery,152.9510863,-27.0839336,Caboolture,QLD
Cairns Art Gallery,145.7733307,-16.9233322,Cairns City,QLD
Caloundra Regional Gallery,153.1308159,-26.8037934,Caloundra,QLD
Campbelltown Arts Centre (CAC),150.8083008,-34.0730221,Campbelltown,NSW
Canberra Contemporary Art Space,149.1351557,-35.2959153,Parkes,ACT
Canberra Glassworks,149.1437041,-35.3115433,Kingston,ACT
Canberra Museum and Gallery,149.1309449,-35.280664,Canberra,ACT
"Canberra Potters, Watson Arts Centre",149.1594458,-35.2348235,Watson,ACT
Carriageworks,151.1916021,-33.8941553,Eveleigh,NSW
Carrick Hill House Museum,138.6327195,-34.9784586,Springfield,SA
Cascade Art Gallery,144.0689457,-36.9963144,Maldon,VIC
Castlemaine Art Museum,144.2200032,-37.0664778,Castlemaine,VIC
CAVES,144.9631732,-37.8142454,Melbourne,VIC
CBD Gallery,151.2082848,-33.8698439,Sydney,NSW
Cement Fondu,151.2272766,-33.8841572,Paddington,NSW
Centre for Contemporary Photography (CCP),144.980904,-37.8044526,Fitzroy,VIC
Ceramic Break Sculpture Park,150.5394102,-29.5789998,Warialda Rail,NSW
Chalk Horse,151.219225,-33.8783381,Darlinghurst,NSW
Chapman & Bailey,144.9977808,-37.8033554,Abbotsford,VIC
Charles Darwin University Art Gallery, 130.84178623531233, -12.459527884068367, Chancellery,NT
Charles Nodrum Gallery,144.9907213,-37.80745,Richmond,VIC
Chau Chak Wing Museum,151.1800986,-33.8896116,Camperdown,NSW
China Cultural Centre in Sydney,151.2082848,-33.8698439,Sydney,NSW
Chrissie Cotter Gallery,151.1800986,-33.8896116,Camperdown,NSW
City Gallery,144.9631732,-37.8142454,Melbourne,VIC
City of Perth Council House Gallery,115.8605784,-31.9558967,Perth,WA
Civic Art Bureau,149.1012676,-35.2975906,Canberra,ACT
CLIMARTE Gallery,144.9907213,-37.80745,Richmond,VIC
CnG Art Gallery,144.9957991,-37.9081962,Brighton,VIC
Coconut Studios,130.8524998,-12.3988881,Coconut Grove,NT
Collective Haunt,138.6320869,-34.9213467,Norwood,SA
Colville Gallery,147.3332835,-42.8882045,Battery Point,TAS
COMA,151.219225,-33.8783381,Darlinghurst,NSW
Compendium Gallery,145.0193207,-37.8563442,Armadale,VIC
Conny Dietzschold Gallery,150.7513157,-33.600541,East Sydney,NSW
Contemporary Art Tasmania,147.31918450092758, -42.87453287494093,Contemporary Art,TAS
"Convent Gallery, Daylesford",144.1465866,-37.3414775,Daylesford,VIC
Cooroy Butter Factory Arts Centre,144.9918537,-37.8377695,South Yarra,VIC
Corner Store Gallery,149.0971567,-33.2820463,Orange,NSW
correspondences,144.9603589,-37.7767817,Brunswick,VIC
Counihan Gallery,144.9610371,-37.7721246,Brunswick,VIC
Cowra Micro Gallery,148.6935649,-33.8111285,Cowra,NSW
Cowra Regional Art Gallery, 148.69404727333378, -33.83446085994861, Sreet Cowra,NSW
Craft + Design Canberra,149.1012676,-35.2975906,Canberra,ACT
Craft Victoria,145.4023495,-38.0558322,Craft,VIC
Curl Curl Creative Space,151.2904773,-33.7630002,North Curl Curl,NSW
Cusack & Cusack,144.4506832,-37.2444855,Kyneton,VIC
DADAA Gallery – Fremantle,115.7586172,-32.0534086,Fremantle,WA
Darren Knight Gallery,151.2073137,-33.9002762,Waterloo,NSW
David Giles Art Gallery,115.7586172,-32.0534086,Fremantle,WA
David Roche Gallery,138.5953502,-34.9085015,North Adelaide,SA
Dax Centre,144.9631732,-37.8142454,Melbourne,VIC
Deakin University Art Gallery,145.0805767,-37.851671,Burwood,VIC
Defiance Gallery,151.2272766,-33.8841572,Paddington,NSW
Delmar Gallery,145.129753,-37.8777227,Gallery 144,VIC
Desert Mob,144.9918537,-37.8377695,South Yarra,VIC
Design Tasmania,147.2491373,-42.7808433,Design,TAS
Despard Gallery,147.3281233,-42.8825088,Hobart,TAS
Devonport Regional Gallery,146.3613011,-41.1797561,Devonport,TAS
Divisions Gallery,144.9643314,-37.7449752,Coburg,VIC
Djaa Djuwima – First Nations Gallery,144.2826718,-36.7590183,Bendigo,VIC
Dominik Mersch Gallery,144.9918537,-37.8377695,South Yarra,VIC
Dova Collective,115.8605784,-31.9558967,Perth,WA
Dust Temple,153.4724331,-28.1442413,Currumbin,QLD
D’Lan Contemporary,144.9631732,-37.8142454,Melbourne,VIC
E+Hive Gallery,144.9881387,-37.802104,Collingwood,VIC
e.g.etal,144.9631732,-37.8142454,Melbourne,VIC
East Gippsland Art Gallery,147.6304752,-37.8254509,Bairnsdale,VIC
Eden and the Willow,151.1801893,-33.8961132,Newtown,NSW
EDWINA CORLETTE,153.0469363,-27.466589,New Farm,QLD
Eloise Cato Gallery,151.0506105,-33.7756191,Hills Sydney,NSW
Everywhen Art,145.0554939,-38.4247467,Shoreham,VIC
Fairfield City Museum & Gallery,150.9420268,-33.8542809,Smithfield,NSW
Faux Gallery,144.9717424,-37.7704574,Brunswick East,VIC
Feather & Lawry Gallery,151.9506835,-27.5597959,Toowoomba City,QLD
Federation University Post Office Gallery,144.9918537,-37.8377695,South Yarra,VIC
Fellia Melas Gallery,144.9918537,-37.8377695,South Yarra,VIC
FELTspace,138.5999312,-34.9281805,Adelaide,SA
"Fine Arts, Sydney",151.2272766,-33.8841572,Paddington,NSW
Fiona and Sidney Myer Gallery,144.967941,-37.8255106,Southbank,VIC
FireWorks Gallery,153.0373122,-27.4434045,Bowen Hills,QLD
Firstdraft Gallery,151.2156518,-33.8730438,Woolloomooloo,NSW
Five Walls Gallery & Projects,144.897345,-37.7981339,Footscray,VIC
Flinders Lane Gallery,144.9631732,-37.8142454,Melbourne,VIC
Flinders Street Gallery,144.9918537,-37.8377695,South Yarra,VIC
Flinders University Museum of Art,138.5698409,-35.0233978,Bedford Park,SA
Footscray Community Arts,144.9918537,-37.8377695,South Yarra,VIC
Fortyfivedownstairs,144.9631732,-37.8142454,Melbourne,VIC
Fox Galleries,144.9881387,-37.802104,Collingwood,VIC
Fox Jensen Gallery,151.2272766,-33.8841572,Paddington,NSW
Frankston Arts Centre,145.1232659,-38.1461351,Frankston,VIC
FUTURES,144.9881387,-37.802104,Collingwood,VIC
Fyre Gallery,149.7955552,-35.4388907,Braidwood,NSW
Gaffa Gallery,151.2082848,-33.8698439,Sydney,NSW
GAGPROJECTS,138.620129,-34.9215545,Kent Town,SA
GALA Gallery,150.5279477,-23.3648749,Berserker,QLD
Gallery 144,151.0506105,-33.7756191,Hills Sydney,NSW
Gallery 152,116.7691483,-31.8889034,York,WA
Gallery 48,146.8036047,-19.3502845,Townsville City,QLD
Gallery 9,151.219225,-33.8783381,Darlinghurst,NSW
Gallery at City Library,144.9631732,-37.8142454,Melbourne,VIC
Gallery Central,115.8575464,-31.9478509,Northbridge,WA
Gallery Elysium,145.0391777,-37.8232327,Hawthorn,VIC
Gallery Jones Art & Frame House,144.9952063,-37.8758915,Ripponlea,VIC
Gallery Lane Cove,151.201079,-33.7866654,Cove,NSW
Gallery LNL,151.1801893,-33.8961132,Newtown,NSW
Gallery M,138.544563,-35.0066862,Oaklands Park,SA
Gallery Raye,152.8508329,-26.7079095,Sunshine Coast,QLD
Gallery Unbound,145.0009469,-37.7728157,Northcote,VIC
Gallery76,151.0856114,-33.8484033,Concord West,NSW
Gallerysmith,144.9898165,-37.849953,Prahran,VIC
Gang Gang Gallery,150.1517518,-33.4826815,Lithgow,NSW
Geelong Art Space,144.3598241,-38.1493248,Geelong,VIC
Geelong Gallery,144.3569382,-38.146917,Geelong,VIC
Gertrude Contemporary,144.9918537,-37.8377695,South Yarra,VIC
Gippsland Art Gallery,147.0634792,-38.1118614,Sale,VIC
Gladstone Regional Art Gallery & Museum,151.256132,-23.8431724,Gladstone,QLD
Glasshouse Regional Gallery,152.9100149,-31.4339619,Port Macquarie,NSW
Glen Eira City Council Gallery, 145.02267257109236, -37.87994424043406, Roads Caulfield,VIC
Goolugatup Heathcote,115.8366566,-32.0137091,Applecross,WA
Gosford Regional Gallery,151.3511111,-33.4316667,East Gosford,NSW
Goulburn Regional Art Gallery,149.7198009,-34.7523871,Goulburn,NSW
Grace Cossington Smith Gallery,151.1174435,-33.7183413,Wahroonga,NSW
Grafton Gallery,152.9304319,-29.6889558,Grafton,NSW
Grainger Gallery,149.1643485,-35.3221333,Fyshwick,ACT
Granville Centre Art Gallery,151.0060111,-33.8345097,Granville,NSW
Grassland Gallery,146.3312403,-24.9071275,Tambo,QLD
Grau Projekt,144.9953613,-37.7888762,Clifton Hill,VIC
Griffith Regional Art Gallery,146.0081042,-34.334545,Griffith,NSW
Griffith University Art Museum,153.0199491,-27.4762827,South Bank,QLD
Hahndorf Academy,138.8096715,-35.0288458,Hahndorf,SA
Hamilton Gallery,142.0242865,-37.7433872,Hamilton,VIC
Handmark,147.3281233,-42.8825088,Hobart,TAS
Hawkesbury Regional Gallery,150.821953,-33.6055342,Windsor,NSW
Haydens,144.9776825,-37.7688802,Brunswick East,VIC
Hazelhurst Arts Centre,151.0815765,-34.0324927,Kingsway Gymea,NSW
Heide Museum of Modern Art,145.0829805,-37.757358,Bulleen,VIC
Helgoland,144.9881387,-37.802104,Collingwood,VIC
Hellenic Museum,144.957084,-37.812171,Melbourne,VIC
Hervey Bay Regional Gallery,152.8379313,-25.2838346,Pialba,QLD
Holmes à Court Gallery at Vasse Felix,115.1029727,-33.8512674,Cowaramup,WA
Horsham Regional Art Gallery,142.1984302,-36.7164588,Horsham,VIC
HOTA,144.9918537,-37.8377695,South Yarra,VIC
Hugo Michell Gallery,138.6452299,-34.9176726,Beulah Park,SA
Hurstville Museum & Gallery,151.1024219,-33.964465,Hurstville,NSW
Hyde Park Barracks,151.2082848,-33.8698439,Sydney,NSW
Hyphen – Wodonga Library Gallery,146.8880837,-36.1205539,Wodonga,VIC
Immigration Museum,144.9603977,-37.8191199,Melbourne,VIC
Incinerator Art Space,151.2018087,-33.8114192,Willoughby,NSW
Incinerator Gallery,144.9192614,-37.765935,Moonee Ponds,VIC
Institute of Modern Art,153.0362663,-27.4572735,Fortitude Valley,QLD
Ipswich Art Gallery,152.7608348,-27.6160323,Ipswich,QLD
Islamic Museum of Australia,144.9807272,-37.7545198,Thornbury,VIC
Ivanhoe Library and Cultural Hub,145.0454487,-37.7688774,Ivanhoe,VIC
Jacky Winter Gallery (formerly Lamington Drive),144.9869902,-37.7967457,Collingwood,VIC
Jacob Hoerner Galleries,144.981637,-37.8638261,Kilda,VIC
JahRoc Galleries,115.0769369,-33.9531776,Margaret River,WA
James Makin Gallery,144.9907466,-37.8061873,Collingwood,VIC
JamFactory: Adelaide,138.5999312,-34.9281805,Adelaide,SA
JamFactory: Seppeltsfield,138.9191121,-34.4896437,Seppeltsfield,SA
Jan Manton Gallery,153.0475748,-27.4561795,Teneriffe,QLD
Jan Murphy Gallery,153.0362663,-27.4572735,Fortitude Valley,QLD
Japingka Gallery,115.7445449,-32.0551836,Fremantle,WA
Jerico Contemporary,151.2192218,-33.8718758,Woolloomooloo,NSW
Jewish Museum of Australia,144.981637,-37.8638261,Kilda,VIC
John Curtin Gallery Curtin University,115.9065455,-32.0084461,Bentley,WA
Jump Left,144.9631732,-37.8142454,Melbourne,VIC
Justin Art House Museum JAHM,144.9918537,-37.8377695,South Yarra,VIC
KAMILĖ GALLERY,115.8605784,-31.9558967,Perth,WA
Kate Owen Gallery,151.1743543,-33.8645002,Rozelle,NSW
Kelli Lundberg Art,145.1153474,-38.2431787,Moorooduc,VIC
King Street Gallery on William,151.219225,-33.8783381,Darlinghurst,NSW
Kingston Arts: G1 and G2 Gallery,145.0367934,-37.9343641,Moorabbin,VIC
"Kingston Arts: G3 Gallery, Shirley Burke Theatre",145.0755901,-37.9924751,Parkdale,VIC
KolbuszSpace,115.8605784,-31.9558967,Perth,WA
Koorie Heritage Trust,145.0664244,-37.9767695,Melbourne,VIC
Korean Cultural Centre Australia,151.2082848,-33.8698439,Sydney,NSW
Kyeema Gallery at Capital Wines,149.0667491,-35.1702288,Hall,ACT
La Trobe Art Institute,144.2826718,-36.7590183,Bendigo,VIC
"La Trobe University, Bendigo Campus Phyllis Palmer Gallery",144.2826718,-36.7590183,Bendigo,VIC
Lander—Se,145.0209335,-38.3683762,Red Hill,VIC
Latrobe Art Space,153.0001083,-27.4607525,Paddington,QLD
Latrobe Regional Gallery,146.3942692,-38.2368308,Morwell,VIC
Lauraine Diggins Fine Art,145.0100994,-37.8633951,North Caulfield,VIC
Lavendar Bay Society,151.6699965,-30.4915278,Society of,NSW
Lawrence Wilson Art Gallery & Berndt Museum,115.8175988,-31.9746305,Crawley,WA
Leighton Contemporary,153.05751,-26.4248421,Noosaville,QLD
Lennox St. Gallery,144.9907213,-37.80745,Richmond,VIC
LiddellWORKS,151.1132887,-32.602355,Singleton,NSW
Liminal Gallery + Lab,144.3598241,-38.1493248,Geelong,VIC
Linden New Art,144.981637,-37.8638261,Kilda,VIC
Linton & Kay: Cherubino Wines,115.0462,-33.79548,Wilyabrup,WA
Linton & Kay: Cottesloe Gallery,115.7558367,-31.9955715,Cottesloe,WA
Linton & Kay: Subiaco Gallery,115.8240314,-31.9463298,Subiaco,WA
Linton & Kay: West Perth Gallery,115.841571,-31.9486588,West Perth,WA
Lismore Regional Gallery,153.2791883,-28.8077608,Lismore,NSW
Liverpool Powerhouse,150.8952778,-33.9522222,Casula,NSW
Liverpool Street Gallery,150.7513157,-33.600541,East Sydney,NSW
Logan Art Gallery,153.1072741,-27.6412988,Logan Central,QLD
LON Gallery,144.9907213,-37.80745,Richmond,VIC
Lyon Housemuseum & Housemuseum Galleries,145.0333285,-37.8033586,Kew,VIC
M16 Artspace,149.1371297,-35.3253499,Griffith,ACT
M2 Gallery,151.2100301,-33.8845123,Surry Hills,NSW
Macquarie University Art Gallery,151.1256747,-33.7814961,Macquarie Park,NSW
Madeline Gordon Gallery,147.1373496,-41.4340813,Launceston,TAS
Maffra Exhibition Space,146.9764384,-37.9652474,Maffra,VIC
MAGMA,144.9881387,-37.802104,Collingwood,VIC
Maitland Regional Art Gallery,151.5614115,-32.7373932,Maitland,NSW
Manly Art Gallery & Museum,151.2879845,-33.7971937,Manly,NSW
Manning Regional Art Gallery,152.4608481,-31.912864,Taree,NSW
Manningham Art Gallery,145.1238431,-37.7848299,Doncaster,VIC
Margaret Whitlam Galleries, 151.0237497178994, -33.81296794725896, Whitlam Institute,VIC
Maroondah Federation Estate Gallery,145.2303117,-37.8197514,Ringwood,VIC
MARS,144.9916848,-37.8558243,Windsor,VIC
Martin Browne Contemporary,151.2272766,-33.8841572,Paddington,NSW
Mary Cherry,144.9881387,-37.802104,Collingwood,VIC
McClelland Gallery + Sculpture Park,145.1973931,-38.1545829,Langwarrin,VIC
McGlade Gallery,151.078506,-33.8798136,Strathfield,NSW
Meat Market’s Stables,144.9423514,-37.8076092,North Melbourne,VIC
Megalo Print Studio + Gallery,149.1465925,-35.3152303,Kingston,ACT
Melbourne Convention and Exhibition Centre,144.9493432,-37.8253279,South Wharf,VIC
Melbourne Holocaust Museum,145.0010231,-37.8849937,Elsternwick,VIC
Melbourne Museum,144.9723488,-37.8032298,Carlton,VIC
Metro Arts,153.0075017,-27.4832994,West End,QLD
Midland Junction Arts Centre,116.0068289,-31.8902981,Midland,WA
Midnight in Paris,144.9898165,-37.849953,Prahran,VIC
Mildura Arts Centre,142.1583733,-34.1776027,Mildura,VIC
Missing Persons,144.9918537,-37.8377695,South Yarra,VIC
Mitchell Fine Art,153.0362663,-27.4572735,Fortitude Valley,QLD
Modern Times,144.9918537,-37.8377695,South Yarra,VIC
Monash University MADA Gallery,145.0420847,-37.881276,Caulfield East,VIC
Monash University Museum of Art (MUMA),145.0420847,-37.881276,Caulfield East,VIC
Montville Art Gallery,152.8940371,-26.6971025,Montville,QLD
Moonah Arts Centre (MAC),147.2918113,-42.8472695,Moonah,TAS
MOORE CONTEMPORARY,115.8613958,-31.955324,Perth,WA
Moores Building Contemporary Art Gallery,115.7586172,-32.0534086,Fremantle,WA
Mornington Peninsula Regional Gallery,145.0411089,-38.2202151,Mornington,VIC
Mosman Art Gallery,151.2476855,-33.8283536,Mosman,NSW
Mossenson Galleries,115.8341849,-31.9473041,Subiaco,WA
Mudgee Arts Precinct,149.5834228,-32.5899469,Mudgee,NSW
Mundaring Arts Centre,144.9918537,-37.8377695,South Yarra,VIC
Murray Art Museum Albury (MAMA),146.9174121,-36.0808976,Albury,NSW
Murray Bridge Regional Gallery,139.2651638,-35.1309451,Murray Bridge,SA
Museum and Art Gallery of the Northern Territory (MAGNT),130.8332833,-12.4372686,of the,NT
Museum of Art and Culture Lake Macquarie (MAC),151.6108467,-32.9717629,Booragul,NSW
Museum of Australian Photography (MAPh),145.1978927,-37.9080509,Wheelers Hill,VIC
Museum of Brisbane,153.0642439,-27.4135802,Hall Brisbane,QLD
Museum of Contemporary Art Australia,151.2083216,-33.859992,The Rocks,NSW
Museum of Old and New Art (Mona), 147.26146404965914, -42.81237978570957, Berridale Hobart,TAS
Museum of Sydney,144.9918537,-37.8377695,South Yarra,VIC
Muswellbrook Regional Arts Centre,150.516408,-32.4881159,Muswellbrook,NSW
Mystik River Gallery,144.9639481,-37.8231713,Southbank Melbourne,VIC
N. Smith Gallery,151.2272766,-33.8841572,Paddington,NSW
Nancy Sever Gallery,149.1012676,-35.2975906,Canberra,ACT
Nanda\Hobbs,151.1995298,-33.8873381,Chippendale,NSW
Nasha Gallery,151.2044524,-33.8814408,Haymarket,NSW
National Anzac Centre,117.9014372,-35.0269785,Mount Clarence,WA
National Art School Gallery,151.219225,-33.8783381,Darlinghurst,NSW
National Gallery of Australia,149.1366851,-35.3008452,Parkes,ACT
National Gallery of Victoria – NGV International,144.9686548,-37.8229117,Gallery of,VIC
National Gallery of Victoria – The Ian Potter Centre: NGV Australia,144.9686548,-37.8229117,Gallery of,VIC
National Library of Australia (NLA),149.135887,-35.3004029,Canberra,ACT
National Museum of Australia (NMA),149.1173851,-35.2900563,Acton Peninsula,ACT
National Portrait Gallery,149.1338471,-35.2998647,Parkes,ACT
NCCA – Northern Centre for Contemporary Art,130.857506,-12.391759,Village Darwin,NT
Neon Parc – Brunswick,144.9613103,-37.7664715,Brunswick,VIC
Neon Parc – South Yarra,144.9918537,-37.8377695,South Yarra,VIC
Neoterica at Adelaide Festival,138.5999312,-34.9281805,Adelaide,SA
New England Regional Art Museum,151.6648629,-30.5252602,Armidale,NSW
Newcastle Art Gallery,151.7728091,-32.9294982,Newcastle,NSW
Newmarch Gallery,138.5928622,-34.8827359,Prospect,SA
"Newstead Art, Bondi Beach",151.2724119,-33.8906977,Bondi Beach,NSW
Nexus Arts,138.5999312,-34.9281805,Adelaide,SA
Ngununggula,150.4177868,-34.4816626,Bowral,NSW
Niagara Galleries,144.9907213,-37.80745,Richmond,VIC
Nicholas Thompson Gallery,144.990479,-37.8072032,Collingwood,VIC
No Vacancy Gallery,144.9631732,-37.8142454,Melbourne,VIC
Noosa Regional Gallery,153.0391832,-26.3920057,Tewantin,QLD
North Gallery,144.9792611,-37.8010382,Fitzroy,VIC
NorthSite Contemporary Arts,145.7733307,-16.9233322,Cairns City,QLD
NSW Parliament House,151.2082848,-33.8698439,Sydney,NSW
Oceanic Arts Australia,151.2272766,-33.8841572,Paddington,NSW
OFFMARKET Gallery,115.7839988,-31.980291,Claremont,WA
Old Quad,144.9609846,-37.7975582,Parkville,VIC
Old Treasury Building,144.9743841,-37.8131798,East Melbourne,VIC
OLSEN,151.2733318,-33.8618335,Woollahra,NSW
One Star Gallery,145.1906661,-37.9087079,Gallery 301-303,VIC
Onespace Gallery,153.0200774,-27.479264,South Brisbane,QLD
Orange Regional Gallery,149.1034393,-33.2813301,Orange,NSW
OTOMYS,144.9898165,-37.849953,Prahran,VIC
OTOMYS – Villa Alba,145.0333285,-37.8033586,Kew,VIC
Outback Arts Gallery,148.2623773,-30.8652096,Coonamble,NSW
"Outback Regional Gallery, Winton",143.0364812,-22.3845163,Winton,QLD
Outer Space Brisbane,153.0362663,-27.4572735,Fortitude Valley,QLD
Parallel Projects,144.897345,-37.7981339,Footscray,VIC
PARKER Contemporary,153.0200774,-27.479264,South Brisbane,QLD
Parramatta Artists’ Studios,150.9991808,-33.8142127,Parramatta,NSW
Penny Contemporary,147.3281233,-42.8825088,Hobart,TAS
Penrith Regional Gallery & The Lewers Bequest,150.6677778,-33.7483333,Emu Plains,NSW
Perc Tucker Regional Gallery,146.8036047,-19.3502845,Townsville City,QLD
Performance Arts Culture Cessnock | PACC,151.3511111,-32.8316667,Cessnock,NSW
Perth Centre for Photography (PCP),115.8430024,-31.9468163,West Perth,WA
Perth Institute of Contemporary Arts (PICA),115.8575464,-31.9478509,Northbridge,WA
PG Gallery,144.9918537,-37.8377695,South Yarra,VIC
Philip Bacon Galleries,153.0381178,-27.4605581,Fortitude Valley,QLD
PhotoAccess Huw Davies Gallery,149.1371297,-35.3253499,Griffith,ACT
PIERMARQ*,151.2102246,-33.8797985,Surry Hills,NSW
Pine Rivers Art Gallery,152.9905347,-27.3099861,Strathpine,QLD
Pinnacles Gallery,146.7262642,-19.312847,Thuringowa Central,QLD
Platform Arts,144.3598241,-38.1493248,Geelong,VIC
"Plimsoll Gallery, University of Tasmania",147.3218083,-42.906822,University of,TAS
Port Pirie Regional Art Gallery,138.0058614,-33.1791249,Port Pirie,SA
Portland Arts Centre,141.6042304,-38.3456231,Portland,VIC
Potter Museum of Art,144.9515533,-37.7871148,Parkville,VIC
Powerhouse Museum: Museum of Applied Arts and Sciences (MAAS),151.2017012,-33.8831229,Ultimo,NSW
praxis ARTSPACE,138.5799792,-34.9028963,Bowden,SA
Print Council of Australia Gallery,144.9640203,-37.8253618,Southbank,VIC
Professor Sir Joseph Burke Gallery,144.9515533,-37.7871148,Parkville,VIC
Project8 Gallery,144.9631732,-37.8142454,Melbourne,VIC
PS Art Space,115.7586172,-32.0534086,Fremantle,WA
Pt. Leo Estate,145.0742551,-38.4060611,Merricks,VIC
Purple Noon Gallery,150.8024693,-33.5632311,Freemans Reach,NSW
QDOS Fine Arts,143.9748166,-38.5411691,Lorne,VIC
Quadrant Gallery + Art Advisory,145.0317207,-37.8244246,Hawthorn,VIC
Queen Victoria Museum & Art Gallery,151.2117984,-33.8696848,Queen,VIC
Queenscliff Gallery,144.9918537,-37.8377695,South Yarra,VIC
Queensland Art Gallery | Gallery of Modern Art,153.01711,-27.4705444,South Brisbane,QLD
Queensland Museum,153.0179843,-27.4727764,Queensland Museum,QLD
Queensland Museum Kurilpa,153.0168295,-27.4748293,South Brisbane,QLD
QUT Art Museum and William Robinson Gallery,153.0235009,-27.4689623,Brisbane,QLD
RACV City Club,144.9595766,-37.815926,Melbourne,VIC
RACV Goldfields Resort,143.8939669,-37.4245857,Creswick,VIC
RACV Healesville Country Club & Resort,145.5161533,-37.6537218,Healesville,VIC
RACV Inverloch Resort,145.6866591,-38.6489017,Inverloch,VIC
RAFT Artspace,133.8812885,-23.6983884,Alice Springs,NT
Ravenswood School for Girls,151.1518099,-33.7553899,Gordon,NSW
ReadingRoom,145.0009469,-37.7728157,Northcote,VIC
Red Gallery,144.9818705,-37.7853764,Fitzroy North,VIC
Red Tree Gallery and Sculpture Park,145.8888343,-38.0258265,Jindivick,VIC
REDBASE,151.1970464,-33.8845719,Chippendale Sydney,NSW
Redcliffe Art Gallery,153.1129973,-27.2268785,Redcliffe,QLD
Redfern Art & Ceramic Gallery,151.2040292,-33.8931044,Redfern,NSW
"Redland Art Gallery, Cleveland",153.2667298,-27.5262987,Cleveland,QLD
Rex-Livingston Art + Objects,150.3121633,-33.713759,Katoomba,NSW
Riddoch Arts & Cultural Centre,140.7809835,-37.8288518,Mount Gambier,SA
RMIT Design Hub Gallery,144.9645832,-37.8081607,RMIT University,VIC
RMIT First Site Gallery,144.9639143,-37.8090205,Melbourne,VIC
RMIT Gallery,144.9631732,-37.8142454,Melbourne,VIC
Roberson Art Gallery,144.9907213,-37.80745,Richmond,VIC
Robyn Bauer Studio Gallery,153.0001083,-27.4607525,Paddington,QLD
Rochfort Gallery,151.2091974,-33.8343158,North Sydney,NSW
Rockhampton Museum of Art,150.5102964,-23.3792268,Rockhampton City,QLD
Rogue Pop-Up Gallery,151.2040292,-33.8931044,Redfern,NSW
Roslyn Oxley9 Gallery,151.2272766,-33.8841572,Paddington,NSW
Rosny Farm,147.366536,-42.8669303,Rosny Park,TAS
Ross Creek Gallery,143.767163,-37.6028625,Smythes Creek,VIC
Royal South Australian Society of Arts Inc.,138.5999312,-34.9281805,Adelaide,SA
Rubicon ARI,144.9423514,-37.8076092,North Melbourne,VIC
Rusten House Art Centre,149.2337634,-35.3524518,Queanbeyan,NSW
S.H. Ervin Gallery,151.2083216,-33.859992,The Rocks,NSW
Saint Cloche,151.2272766,-33.8841572,Paddington,NSW
Salamanca Arts Centre,147.3281233,-42.8825088,Hobart,TAS
Salt Contemporary Art,144.6612949,-38.2671132,Queenscliff,VIC
Samstag Museum of Art,138.5999312,-34.9281805,Adelaide,SA
Sarah Scout Presents,144.9631732,-37.8142454,Melbourne,VIC
Sauerbier House Culture Exchange,144.9918537,-37.8377695,South Yarra,VIC
Sawtooth ARI,147.1359349,-41.4221595,Invermay,TAS
SCA Gallery,151.1800986,-33.8896116,Camperdown,NSW
Scieppan Gallery,151.219225,-33.8783381,Darlinghurst,NSW
Scratch Art Space,151.1560775,-33.9104,Marrickville,NSW
SEVENTH Gallery,144.9907213,-37.80745,Richmond,VIC
Shepparton Art Museum,145.3967786,-36.3912762,Shepparton,VIC
Shivers Gallery,144.9613103,-37.7664715,Brunswick,VIC
Shoalhaven Regional Gallery Nowra,150.6004709,-34.8741198,Nowra,NSW
Silver Leaf Art Box,145.0885175,-38.3898238,Merricks,VIC
Slow Clay Centre,144.9881387,-37.802104,Collingwood,VIC
SNO Contemporary Art Projects,151.1560775,-33.9104,Marrickville,NSW
Sofitel Melbourne on Collins,144.9631732,-37.8142454,Melbourne,VIC
Soho Galleries – Sydney,151.2476855,-33.8283536,Mosman,NSW
SOL Gallery,144.9792611,-37.8010382,Fitzroy,VIC
Sophie Gannon Gallery,144.9907213,-37.80745,Richmond,VIC
South Australian Museum,138.6035628,-34.9207272,Adelaide,SA
South Australian School of Art (SASA) Gallery,138.5999312,-34.9281805,Adelaide,SA
South East Centre for Contemporary Art – SECCA,149.8408283,-36.6780983,Bega,NSW
St Francis’ Contemporary Art Space,144.9623715,-37.8115579,Melbourne,VIC
STALA Contemporary,115.8321028,-31.9385927,West Leederville,WA
Stanley Street Gallery,151.219225,-33.8783381,Darlinghurst,NSW
Stanthorpe Regional Art Gallery,151.9338265,-28.6559947,Stanthorpe,QLD
State Library of New South Wales (NSW),151.2128494,-33.866874,Library of,NSW
State Library of Queensland (SLQ),153.018136,-27.4711996,Library of,QLD
State Library Victoria (SLV),144.9655352,-37.8097696,State Library,VIC
STATION | Melbourne,144.9918537,-37.8377695,South Yarra,VIC
STATION | Sydney,151.2100301,-33.8845123,Surry Hills,NSW
SteelReid Studio,150.4052237,-33.609741,Blue Mountains,NSW
Stephen McLaughlan Gallery,144.9631732,-37.8142454,Melbourne,VIC
Stockroom Kyneton,144.4460414,-37.2436393,Kyneton,VIC
Straitjacket,151.7302778,-32.9225,Broadmeadow,NSW
Studio 13 Gallery,151.2272766,-33.8841572,Paddington,NSW
Studio A,151.7720626,-32.9308321,Leonards,NSW
Studio Altenburg Fine Art Gallery,149.7955552,-35.4388907,Braidwood,NSW
Sturt Gallery and Studios,150.4478867,-34.4551869,Mittagong,NSW
Suki and Hugh Gallery,149.4387166,-35.2547375,Bungendore,NSW
Sullivan+Strumpf Gadigal/Sydney,151.2082183,-33.9076623,Zetland,NSW
Sullivan+Strumpf Naarm/Melbourne,144.9881387,-37.802104,Collingwood,VIC
Sutton Gallery,144.9784129,-37.7997624,Fitzroy,VIC
Swan Hill Regional Art Gallery,143.5588436,-35.3390784,Swan Hill,VIC
Sydney Road Gallery,151.2644605,-33.7943622,Balgowlah,NSW
Tamworth Regional Gallery,150.9290159,-31.0900743,Tamworth,NSW
Tandanya,138.5999312,-34.9281805,Adelaide,SA
"Tanks Arts Centre, Cairns",145.7383878,-16.882864,Hill Cairns,QLD
TarraWarra Museum of Art,145.5161533,-37.6537218,Healesville,VIC
Tasmanian Museum and Art Gallery,147.3281233,-42.8825088,Hobart,TAS
The Art Gallery of Western Australia,145.2414171,-37.8684233,Gallery of,WA
The Color Queen Gallery,151.2733318,-33.8618335,Woollahra,NSW
The Cross Art Projects,151.2222308,-33.8744874,Kings Cross,NSW
The Drying Shed,144.2200032,-37.0664778,Castlemaine,VIC
The G Contemporary,153.091049,-26.40014,Noosa Heads,QLD
The Garden Gallery,151.2082848,-33.8698439,Sydney,NSW
The Hive Gallery,144.52487,-38.267045,Ocean Grove,VIC
The Hue and Cry Collective,144.3598241,-38.1493248,Geelong,VIC
The Japan Foundation Gallery,151.1963009,-33.8844171,Broadway Chippendale,NSW
The Johnston Collection,144.9858851,-37.812498,East Melbourne,VIC
The Ken Done Gallery,151.2083216,-33.859992,The Rocks,NSW
The Lock-Up,151.7795348,-32.9192953,Newcastle,NSW
THE LUME Melbourne,144.9383614,-37.8124824,Wharf Melbourne,VIC
The Main Gallery,138.5999312,-34.9281805,Adelaide,SA
The Maritime Museum,151.2082848,-33.8698439,Sydney,NSW
The Maud Street Photo Gallery,153.0461534,-27.4483345,Newstead,QLD
The Mill Adelaide,138.5999312,-34.9281805,Adelaide,SA
The Museum of Chinese Australian History,144.9631732,-37.8142454,Melbourne,VIC
The Sculptors Society (TSS),151.2082848,-33.8698439,Sydney,NSW
The Shop Gallery,151.1888905,-33.8817508,Glebe,NSW
The Sovereign Hill Museum,143.8648855,-37.5737773,Golden Point,VIC
The Stan Gallery,145.1281258,-37.8752637,Mount Waverley,VIC
The SUBSTATION,144.8829759,-37.8442106,Newport,VIC
The TAG Art Gallery,147.3281233,-42.8825088,Hobart,TAS
The Torch at Glen Eira Council Gallery,145.0218005,-37.870828,Caulfield North,VIC
The Torch Gallery,144.9684343,-37.8004228,Carlton,VIC
The University Gallery,151.7011832,-32.8927988,Callaghan,NSW
THIS IS NO FANTASY,144.9792611,-37.8010382,Fitzroy,VIC
Tin Sheds Gallery,151.1932156,-33.890862,Darlington,NSW
Tolarno Galleries,144.9631732,-37.8142454,Melbourne,VIC
Toowoomba Regional Art Gallery,151.9525538,-27.5636883,Toowoomba,QLD
Town Hall Gallery,145.0317207,-37.8244246,Hawthorn,VIC
Tuggeranong Arts Centre,149.0707621,-35.4159834,Greenway,ACT
Tweed Regional Gallery & Margaret Olley Art Centre,153.3965391,-28.326296,Murwillumbah South,NSW
Twenty Twenty Six Gallery,151.2724119,-33.8906977,Bondi Beach,NSW
Tyger Gallery,148.9110055,-34.8418629,Yass,NSW
Umbrella Studio Contemporary Arts,146.8239537,-19.2569391,Townsville,QLD
UMI Arts Gallery,145.7366683,-16.9172775,Manoora,QLD
University of the Sunshine Coast Art Gallery,152.8508329,-26.7079095,Sunshine Coast,QLD
"University of Western Sydney, Australia-China Institute",151.002666,-33.8139843,Parramatta,NSW
UNSW Galleries,151.2272766,-33.8841572,Paddington,NSW
UQ Anthropology  Museum,153.0111705,-27.4975634,Saint Lucia,QLD
UQ Art Museum,153.0131666,-27.497418,University of,QLD
USC Art Gallery,153.0783709,-26.7257935,Sippy Downs,QLD
UTS Gallery,151.1984346,-33.8794728,Ultimo,NSW
VAS Gallery I The Victorian Artists Society,144.9858851,-37.812498,East Melbourne,VIC
Verge Gallery,151.2082848,-33.8698439,Sydney,NSW
Vivien Anderson Gallery,144.9918537,-37.8377695,South Yarra,VIC
VOID Melbourne,144.9631732,-37.8142454,Melbourne,VIC
Wagga Wagga Art Gallery,147.3677778,-35.115,Wagga Wagga,NSW
Wagner Contemporary,151.2272766,-33.8841572,Paddington,NSW
Walker Street Gallery and Arts Centre, 145.2109410165985, -37.98803872689106, Gallery and Arts Centre Cnr Walker and Robinson Streets Dandenong,VIC
Wallarobba Arts and Cultural Centre,151.1050554,-33.7053422,Hornsby,NSW
Walyalup Fremantle Arts Centre,115.7586172,-32.0534086,Fremantle,WA
Wangaratta Art Gallery,146.3228311,-36.356434,Wangaratta,VIC
Warrnambool Art Gallery (WAG),142.4830589,-38.3845515,Warrnambool,VIC
Watercolour Society of Victoria,144.9566002,-37.8106712,Society of,VIC
Watt Space Gallery,151.7795348,-32.9192953,Newcastle,NSW
Wentworth Galleries,151.2082848,-33.8698439,Sydney,NSW
West End Art Space,144.9238207,-37.808747,West Melbourne,VIC
West Space,144.9881387,-37.802104,Collingwood,VIC
Wester Gallery,151.76,-32.9286111,Newcastle West,NSW
"Western Plains Cultural Centre, Dubbo",148.6026502,-32.2478964,Dubbo,NSW
Weswal Gallery,150.9436111,-31.0894444,East Tamworth,NSW
White Rabbit Contemporary Chinese Art Collection,151.1998211,-33.8863291,Chippendale,NSW
Whitehorse Artspace,145.1261267,-37.8215116,Box Hill,VIC
Wollongong Art Gallery,150.8920501,-34.4259668,Wollongong,NSW
Workspace 3496,142.1895377,-34.3070205,Red Cliffs,VIC
Wyndham Art Gallery,144.6578395,-37.9037257,Werribee,VIC
Yarra Ranges Regional Museum,145.3535324,-37.7558212,Lilydale,VIC
Yarra Sculpture Gallery,144.9932064,-37.802857,Abbotsford,VIC
Yarrila Arts and Museum,153.1094116,-30.2985996,Coffs Harbour,NSW
Yering Station Art Gallery,144.9918537,-37.8377695,South Yarra,VIC
ZART Student Gallery,143.9027294,-37.551478,Hill North,VIC
Zig Zag Gallery,116.1022069,-32.0038075,Kalamunda,WA
